[
   {
      "key":"sydney",
      "latitude":-33.86149978637695,
      "longitude":151.20599365234375,
      "name":"Sydney"
   },
   {
      "key":"tokyo",
      "latitude":35.68450164794922,
      "longitude":139.75599670410156,
      "name":"Tokyo"
   },
   {
      "key":"frankfurt",
      "latitude":50.11669921875,
      "longitude":8.683300018310547,
      "name":"Frankfurt"
   },
   {
      "key":"n-virginia",
      "latitude": 38.837392,
      "longitude": 77.4473128,
      "name":"Northen Virginia"
   },
   {
      "key":"oregon",
      "latitude": 44.000000,
      "longitude": -120.500000,
      "name":"Oregon"
   }
]
